     2.10           OBSERVATION DATA    M (MIXED)           RINEX VERSION / TYPE
RTKCONV 2.4.2                           20200224 224102 UTC PGM / RUN BY / DATE 
log: D:\Repository\glnephexercise\logs\BINR.bin             COMMENT             
format: NVS BINR                                            COMMENT             
                                                            MARKER NAME         
                                                            MARKER NUMBER       
                                                            OBSERVER / AGENCY   
                                                            REC # / TYPE / VERS 
                                                            ANT # / TYPE        
  2846211.9321  2200058.2230  5249424.2393                  APPROX POSITION XYZ 
        0.0000        0.0000        0.0000                  ANTENNA: DELTA H/E/N
     1     1                                                WAVELENGTH FACT L1/2
     4    C1    L1    D1    S1                              # / TYPES OF OBSERV 
  2020     2    10    13    37   47.0000000     GPS         TIME OF FIRST OBS   
  2020     2    10    13    40   37.0000000     GPS         TIME OF LAST OBS    
                                                            END OF HEADER       
 20  2 10 13 37 47.0000000  0 12R 5G 1G 6G10G12G13G15G17G19G24G28G32
 -46471663.651   225342309.435        2896.119          44.000  
 -45787858.836    75223166.880       -1945.997          45.000  
 -45302753.855    77772426.200        3537.637          47.000  
 -44691921.021    80982396.575       -1992.922          46.000  
 -47228377.104    67653183.918        3261.109          53.000  
 -45421966.724    77145907.793       -3910.744          47.000  
 -46206819.967    73021483.056       -3377.236          52.000  
 -48721422.996    59807193.030       -1003.508          57.000  
 -49391750.688    56284584.334         963.911          56.000  
 -49243895.541    57061577.363        1189.330          57.000  
 -46889077.375    69436189.702       -2749.122          49.000  
 -44926583.281    79749212.951        2993.321          48.000  
 20  2 10 13 37 48.0000000  0 12R 5G 1G 6G10G12G13G15G17G19G24G28G32
 -46472204.802   225339413.538        2895.376          44.000  
 -45787487.670    75225112.985       -1946.583          45.000  
 -45303428.289    77768888.594        3537.615          47.000  
 -44691539.341    80984389.779       -1993.499          45.000  
 -47228997.299    67649923.001        3260.929          53.000  
 -45421220.473    77149818.711       -3910.725          47.000  
 -46206176.808    73024860.575       -3377.448          52.000  
 -48721231.787    59808196.732       -1004.109          57.000  
 -49391934.017    56283620.740         963.215          55.000  
 -49244121.553    57060388.345        1188.738          57.000  
 -46888554.421    69438938.754       -2749.314          49.000  
 -44927154.651    79746219.757        2992.991          49.000  
 20  2 10 13 37 49.0000000  0 12R 5G 1G 6G10G12G13G15G17G19G24G28G32
 -46472746.476   225336518.253        2894.863          45.000  
 -45787119.301    75227059.699       -1947.137          45.000  
 -45304101.601    77765351.112        3537.426          47.000  
 -44691159.322    80986383.427       -1993.924          45.000  
 -47229616.924    67646662.333        3260.573          53.000  
 -45420475.870    77153729.704       -3910.882          47.000  
 -46205534.900    73028238.322       -3377.780          52.000  
 -48721040.734    59809200.986       -1004.604          57.000  
 -49392117.245    56282657.846         962.531          55.000  
 -49244348.290    57059199.924        1188.135          57.000  
 -46888031.308    69441687.938       -2749.371          49.000  
 -44927724.405    79743226.918        2992.582          48.000  
 20  2 10 13 37 50.0000000  0 12R 5G 1G 6G10G12G13G15G17G19G24G28G32
 -46473288.368   225333623.605        2894.487          45.000  
 -45786748.566    75229007.028       -1947.386          45.000  
 -45304775.706    77761813.738        3537.229          47.000  
 -44690777.964    80988377.538       -1994.279          45.000  
 -47230236.469    67643401.899        3260.236          53.000  
 -45419732.351    77157640.742       -3911.107          47.000  
 -46204891.959    73031616.284       -3378.196          52.000  
 -48720850.116    59810205.813       -1005.044          57.000  
 -49392300.547    56281695.670         961.858          55.000  
 -49244574.980    57058012.074        1187.541          57.000  
 -46887508.217    69444437.277       -2749.314          49.000  
 -44928293.989    79740234.421        2992.422          49.000  
 20  2 10 13 37 51.0000000  0 12R 5G 1G 6G10G12G13G15G17G19G24G28G32
 -46473830.188   225330729.619        2893.869          45.000  
 -45786377.205    75230955.003       -1948.110          45.000  
 -45305448.253    77758276.448        3537.240          47.000  
 -44690395.955    80990372.101       -1994.753          46.000  
 -47230857.216    67640141.680        3259.982          53.000  
 -45418988.557    77161551.833       -3911.318          47.000  
 -46204248.904    73034994.451       -3378.464          52.000  
 -48720658.762    59811211.218       -1005.592          57.000  
 -49392483.358    56280734.210         961.127          55.000  
 -49244801.148    57056824.794        1186.958          57.000  
 -46886984.643    69447186.768       -2749.372          49.000  
 -44928863.593    79737242.279        2992.115          49.000  
 20  2 10 13 37 52.0000000  0 12R 5G 1G 6G10G12G13G15G17G19G24G28G32
 -46474371.862   225327836.299        2892.928          44.000  
 -45786007.279    75232903.582       -1948.948          45.000  
 -45306120.766    77754739.287        3537.064          47.000  
 -44690016.642    80992367.093       -1995.163          46.000  
 -47231479.261    67636881.694        3259.862          53.000  
 -45418242.926    77165462.963       -3911.084          47.000  
 -46203605.464    73038372.837       -3378.472          53.000  
 -48720466.153    59812217.176       -1006.233          57.000  
 -49392666.079    56279773.457         960.385          55.000  
 -49245026.023    57055638.096        1186.447          57.000  
 -46886460.867    69449936.418       -2749.737          49.000  
 -44929433.213    79734250.508        2991.678          48.000  
 20  2 10 13 37 53.0000000  0 12R 5G 1G 6G10G12G13G15G17G19G24G28G32
 -46474913.173   225324943.593        2892.333          44.000  
 -45785634.547    75234852.744       -1949.579          45.000  
 -45306795.164    77751202.237        3537.005          47.000  
 -44689637.639    80994362.544       -1995.720          46.000  
 -47232100.885    67633621.955        3259.679          53.000  
 -45417500.652    77169374.182       -3911.152          47.000  
 -46202962.110    73041751.466       -3378.634          52.000  
 -48720274.291    59813223.690       -1006.867          57.000  
 -49392849.207    56278813.410         959.699          56.000  
 -49245250.741    57054451.969        1185.869          57.000  
 -46885937.326    69452686.198       -2749.996          49.000  
 -44930000.149    79731259.091        2990.985          49.000  
 20  2 10 13 37 54.0000000  0 12R 5G 1G 6G10G12G13G15G17G19G24G28G32
 -46475454.353   225322051.537        2891.685          44.000  
 -45785264.202    75236802.515       -1950.112          45.000  
 -45307468.435    77747665.287        3536.896          47.000  
 -44689259.342    80996358.440       -1996.151          46.000  
 -47232720.583    67630362.458        3259.408          53.000  
 -45416758.040    77173285.449       -3911.279          47.000  
 -46202318.960    73045130.311       -3378.902          52.000  
 -48720082.864    59814230.759       -1007.376          57.000  
 -49393031.520    56277854.078         958.938          55.000  
 -49245475.483    57053266.408        1185.319          57.000  
 -46885415.134    69455436.100       -2750.033          49.000  
 -44930565.940    79728267.987        2990.968          49.000  
 20  2 10 13 37 56.0000000  0 12R 5G 1G 6G10G12G13G15G17G19G24G28G32
 -46476536.380   225316269.328        2890.725          44.000  
 -45784519.407    75240703.918       -1951.174          45.000  
 -45308815.558    77740591.742        3536.736          47.000  
 -44688497.027    81000351.605       -1996.957          46.000  
 -47233960.549    67623844.168        3258.778          53.000  
 -45415268.376    77181108.163       -3911.568          47.000  
 -46201032.284    73051888.670       -3379.572          52.000  
 -48719701.244    59816246.618       -1008.378          57.000  
 -49393395.836    56275937.532         957.585          55.000  
 -49245928.668    57050897.021        1184.072          57.000  
 -46884369.960    69460936.379       -2750.109          49.000  
 -44931698.433    79722286.893        2990.315          49.000  
 20  2 10 13 37 57.0000000  0 12R 5G 1G 6G10G12G13G15G17G19G24G28G32
 -46477076.746   225313379.191        2889.899          44.000  
 -45784145.708    75242655.541       -1951.832          45.000  
 -45309490.285    77737055.131        3536.591          47.000  
 -44688121.493    81002348.853       -1997.291          46.000  
 -47234580.939    67620585.362        3258.678          53.000  
 -45414524.382    77185019.605       -3911.530          47.000  
 -46200389.873    73055268.172       -3379.633          52.000  
 -48719508.740    59817255.402       -1009.038          57.000  
 -49393577.958    56274980.335         956.823          55.000  
 -49246154.498    57049713.178        1183.588          57.000  
 -46883845.437    69463686.750       -2750.431          49.000  
 -44932269.206    79719296.874        2989.897          49.000  
 20  2 10 13 37 58.0000000  0 12R 5G 1G 6G10G12G13G15G17G19G24G28G32
 -46477616.473   225310489.704        2889.000          44.000  
 -45783774.985    75244607.779       -1952.731          45.000  
 -45310163.231    77733518.636        3536.497          46.000  
 -44687741.868    81004346.576       -1997.954          45.000  
 -47235200.891    67617326.804        3258.502          53.000  
 -45413780.798    77188931.111       -3911.417          47.000  
 -46199747.630    73058647.904       -3379.688          52.000  
 -48719316.105    59818264.737       -1009.707          57.000  
 -49393760.271    56274023.834         956.159          55.000  
 -49246379.325    57048529.888        1183.041          57.000  
 -46883322.486    69466437.258       -2750.779          49.000  
 -44932837.952    79716307.199        2989.514          49.000  
 20  2 10 13 37 59.0000000  0 12R 5G 1G 6G10G12G13G15G17G19G24G28G32
 -46478156.390   225307600.856        2888.466          44.000  
 -45783402.521    75246560.607       -1953.327          45.000  
 -45310835.088    77729982.252        3536.348          47.000  
 -44687362.680    81006344.733       -1998.374          45.000  
 -47235821.195    67614068.486        3258.235          53.000  
 -45413037.073    77192842.688       -3911.519          47.000  
 -46199104.879    73062027.870       -3379.967          52.000  
 -48719123.263    59819274.636       -1010.288          57.000  
 -49393942.511    56273068.054         955.403          55.000  
 -49246603.306    57047347.168        1182.417          57.000  
 -46882799.780    69469187.879       -2750.716          49.000  
 -44933403.646    79713317.864        2989.205          49.000  
 20  2 10 13 38  0.0000000  0 12R 5G 1G 6G10G12G13G15G17G19G24G28G32
 -46478696.830   225304712.671        2887.825          45.000  
 -45783031.966    75248514.041       -1953.798          45.000  
 -45311508.686    77726445.975        3536.160          47.000  
 -44686982.100    81008343.340       -1998.997          45.000  
 -47236439.746    67610810.398        3257.979          54.000  
 -45412291.907    77196754.309       -3911.667          46.000  
 -46198461.185    73065408.053       -3380.252          52.000  
 -48718931.075    59820285.087       -1010.769          57.000  
 -49394124.841    56272112.980         954.724          55.000  
 -49246827.395    57046165.037        1181.854          57.000  
 -46882276.391    69471938.664       -2750.914          49.000  
 -44933971.767    79710328.913        2988.692          49.000  
 20  2 10 13 38  1.0000000  0 12R 5G 1G 6G10G12G13G15G17G19G24G28G32
 -46479236.761   225301825.110        2887.311          45.000  
 -45782658.654    75250468.094       -1954.334          45.000  
 -45312179.963    77722909.794        3536.091          47.000  
 -44686597.549    81010342.386       -1999.312          45.000  
 -47237058.428    67607552.543        3257.701          54.000  
 -45411548.228    77200665.985       -3911.804          46.000  
 -46197817.273    73068788.450       -3380.597          52.000  
 -48718739.394    59821296.111       -1011.308          57.000  
 -49394306.637    56271158.605         953.969          55.000  
 -49247052.559    57044983.493        1181.219          57.000  
 -46881752.681    69474689.577       -2750.966          49.000  
 -44934540.021    79707340.284        2988.446          49.000  
 20  2 10 13 38  2.0000000  0 12R 5G 1G 6G10G12G13G15G17G19G24G28G32
 -46479776.837   225298938.191        2886.728          45.000  
 -45782288.041    75252422.765       -1954.789          46.000  
 -45312849.936    77719373.729        3536.039          47.000  
 -44686215.597    81012341.871       -1999.639          46.000  
 -47237678.261    67604294.924        3257.395          54.000  
 -45410803.846    77204577.712       -3911.831          47.000  
 -46197174.821    73072169.061       -3380.856          52.000  
 -48718546.625    59822307.699       -1011.790          57.000  
 -49394487.825    56270204.947         953.317          55.000  
 -49247277.229    57043802.536        1180.674          57.000  
 -46881230.017    69477440.654       -2750.984          49.000  
 -44935111.141    79704352.027        2988.226          49.000  
 20  2 10 13 38  3.0000000  0 12R 5G 1G 6G10G12G13G15G17G19G24G28G32
 -46480315.824   225296051.914        2886.019          45.000  
 -45781916.099    75254378.051       -1955.515          46.000  
 -45313520.631    77715837.783        3535.897          47.000  
 -44685832.739    81014341.827       -2000.129          46.000  
 -47238299.859    67601037.535        3257.277          54.000  
 -45410060.273    77208489.502       -3911.833          47.000  
 -46196532.991    73075549.891       -3380.966          52.000  
 -48718353.711    59823319.855       -1012.432          57.000  
 -49394669.022    56269252.003         952.598          55.000  
 -49247501.077    57042622.165        1180.120          57.000  
 -46880706.630    69480191.872       -2751.258          49.000  
 -44935681.088    79701364.130        2987.693          49.000  
 20  2 10 13 38  4.0000000  0 12R 5G 1G 6G10G12G13G15G17G19G24G28G32
 -46480856.045   225293166.286        2885.296          45.000  
 -45781544.734    75256333.947       -1956.254          46.000  
 -45314194.631    77712301.950        3535.789          47.000  
 -44685451.958    81016342.233       -2000.796          46.000  
 -47238920.489    67597780.390        3257.054          54.000  
 -45409316.090    77212401.353       -3911.823          47.000  
 -46195889.855    73078930.949       -3381.124          52.000  
 -48718161.377    59824332.570       -1012.990          57.000  
 -49394850.309    56268299.772         951.850          55.000  
 -49247725.734    57041442.369        1179.516          57.000  
 -46880184.106    69482943.244       -2751.469          49.000  
 -44936249.523    79698376.567        2987.434          49.000  
 20  2 10 13 38  5.0000000  0 12R 5G 1G 6G10G12G13G15G17G19G24G28G32
 -46481395.904   225290281.321        2884.552          45.000  
 -45781172.063    75258290.449       -1956.956          46.000  
 -45314865.579    77708766.227        3535.701          47.000  
 -44685071.504    81018343.066       -2000.971          46.000  
 -47239540.115    67594523.486        3256.802          54.000  
 -45408571.537    77216313.275       -3911.978          47.000  
 -46195247.235    73082312.228       -3381.336          52.000  
 -48717969.235    59825345.851       -1013.607          57.000  
 -49395031.225    56267348.250         951.146          55.000  
 -49247949.605    57040263.138        1178.939          57.000  
 -46879661.448    69485694.745       -2751.652          49.000  
 -44936818.862    79695389.362        2987.104          49.000  
 20  2 10 13 38  6.0000000  0 12R 5G 1G 6G10G12G13G15G17G19G24G28G32
 -46481936.489   225287396.995        2883.975          45.000  
 -45780800.856    75260247.530       -1957.311          46.000  
 -45315537.872    77705230.609        3535.577          47.000  
 -44684689.571    81020344.364       -2001.436          46.000  
 -47240159.090    67591266.828        3256.594          54.000  
 -45407827.031    77220225.250       -3911.973          47.000  
 -46194602.838    73085693.736       -3381.592          52.000  
 -48717775.429    59826359.683       -1014.095          57.000  
 -49395211.161    56266397.436         950.487          55.000  
 -49248174.565    57039084.485        1178.401          57.000  
 -46879136.250    69488446.379       -2751.761          49.000  
 -44937391.437    79692402.503        2986.696          49.000  
 20  2 10 13 38  7.0000000  0 12R 5G 1G 6G10G12G13G15G17G19G24G28G32
 -46482476.651   225284513.313        2883.503          45.000  
 -45780428.694    75262205.254       -1957.895          46.000  
 -45316210.708    77701695.097        3535.463          47.000  
 -44684308.837    81022346.118       -2001.970          46.000  
 -47240778.800    67588010.401        3256.190          54.000  
 -45407081.531    77224137.263       -3912.163          47.000  
 -46193958.337    73089075.455       -3381.969          52.000  
 -48717580.494    59827374.076       -1014.612          57.000  
 -49395392.186    56265447.332         949.746          55.000  
 -49248399.439    57037906.397        1177.813          57.000  
 -46878612.009    69491198.164       -2751.701          49.000  
 -44937962.343    79689416.017        2986.332          48.000  
 20  2 10 13 38  8.0000000  0 12R 5G 1G 6G10G12G13G15G17G19G24G28G32
 -46483016.278   225281630.262        2882.809          45.000  
 -45780054.925    75264163.593       -1958.532          46.000  
 -45316883.982    77698159.710        3535.267          47.000  
 -44683929.231    81024348.305       -2002.417          46.000  
 -47241399.987    67584754.191        3256.083          54.000  
 -45406336.207    77228049.335       -3912.141          47.000  
 -46193315.572    73092457.377       -3382.025          52.000  
 -48717386.818    59828389.046       -1015.215          57.000  
 -49395572.485    56264497.946         949.020          55.000  
 -49248624.121    57036728.871        1177.252          57.000  
 -46878086.091    69493950.130       -2752.081          49.000  
 -44938530.017    79686429.886        2985.983          48.000  
 20  2 10 13 38  9.0000000  0 12R 5G 1G 6G10G12G13G15G17G19G24G28G32
 -46483555.569   225278747.848        2881.957          45.000  
 -45779682.170    75266122.521       -1959.246          46.000  
 -45317557.835    77694624.418        3535.253          47.000  
 -44683546.586    81026350.934       -2002.870          46.000  
 -47242020.060    67581498.230        3255.899          53.000  
 -45405593.920    77231961.466       -3912.049          47.000  
 -46192671.747    73095839.536       -3382.201          52.000  
 -48717194.760    59829404.570       -1015.830          57.000  
 -49395752.702    56263549.271         948.341          56.000  
 -49248847.497    57035551.937        1176.674          57.000  
 -46877562.442    69496702.204       -2752.320          50.000  
 -44939101.169    79683444.090        2985.561          48.000  
 20  2 10 13 38 10.0000000  0 12R 5G 1G 6G10G12G13G15G17G19G24G28G32
 -46484093.670   225275866.078        2881.334          45.000  
 -45779312.210    75268082.048       -1959.903          46.000  
 -45318229.911    77691089.249        3535.102          47.000  
 -44683167.461    81028354.020       -2003.253          46.000  
 -47242639.203    67578242.503        3255.685          54.000  
 -45404849.176    77235873.668       -3912.122          47.000  
 -46192027.894    73099221.914       -3382.399          52.000  
 -48717002.549    59830420.648       -1016.384          57.000  
 -49395933.300    56262601.300         947.585          56.000  
 -49249069.990    57034375.599        1176.058          57.000  
 -46877038.548    69499454.417       -2752.300          49.000  
 -44939668.226    79680458.658        2985.213          48.000  
 20  2 10 13 38 11.0000000  0 12R 5G 1G 6G10G12G13G15G17G19G24G28G32
 -46484632.163   225272984.982        2880.775          45.000  
 -45778939.672    75270042.195       -1960.459          46.000  
 -45318903.692    77687554.184        3535.036          47.000  
 -44682787.595    81030357.560       -2003.702          46.000  
 -47243258.250    67574987.026        3255.408          54.000  
 -45404104.300    77239785.925       -3912.251          47.000  
 -46191383.764    73102604.520       -3382.698          52.000  
 -48716808.002    59831437.293       -1016.891          57.000  
 -49396113.028    56261654.043         946.869          56.000  
 -49249293.172    57033199.847        1175.465          58.000  
 -46876515.231    69502206.774       -2752.452          50.000  
 -44940238.596    79677473.563        2984.831          48.000  
 20  2 10 13 38 12.0000000  0 12R 5G 1G 6G10G12G13G15G17G19G24G28G32
 -46485171.149   225270104.547        2880.171          45.000  
 -45778565.709    75272002.962       -1960.970          46.000  
 -45319576.931    77684019.246        3534.879          47.000  
 -44682407.905    81032361.545       -2004.218          46.000  
 -47243878.504    67571731.783        3255.053          54.000  
 -45403360.443    77243698.241       -3912.386          47.000  
 -46190739.467    73105987.345       -3383.039          52.000  
 -48716613.575    59832454.512       -1017.470          57.000  
 -49396293.200    56260707.495         946.221          56.000  
 -49249517.308    57032024.669        1174.905          58.000  
 -46875991.624    69504959.284       -2752.533          50.000  
 -44940806.825    79674488.833        2984.489          47.000  
 20  2 10 13 38 13.0000000  0 12R 5G 1G 6G10G12G13G15G17G19G24G28G32
 -46485709.832   225267224.748        2879.571          45.000  
 -45778191.211    75273964.333       -1961.641          46.000  
 -45320249.694    77680484.405        3534.784          47.000  
 -44682026.516    81034365.981       -2004.736          46.000  
 -47244497.901    67568476.760        3254.861          54.000  
 -45402617.038    77247610.610       -3912.517          47.000  
 -46190095.056    73109370.371       -3383.215          52.000  
 -48716420.951    59833472.286       -1018.019          57.000  
 -49396473.689    56259761.655         945.459          56.000  
 -49249741.446    57030850.031        1174.363          57.000  
 -46875467.537    69507711.943       -2752.699          50.000  
 -44941372.407    79671504.433        2984.387          48.000  
 20  2 10 13 38 14.0000000  0 12R 5G 1G 6G10G12G13G15G17G19G24G28G32
 -46486247.802   225264345.561        2878.906          45.000  
 -45777815.047    75275926.320       -1962.304          46.000  
 -45320922.786    77676949.688        3534.688          47.000  
 -44681644.104    81036370.868       -2005.097          45.000  
 -47245117.891    67565221.986        3254.707          54.000  
 -45401872.413    77251523.026       -3912.438          47.000  
 -46189451.085    73112753.630       -3383.333          52.000  
 -48716228.752    59834490.632       -1018.633          57.000  
 -49396653.752    56258816.529         944.767          56.000  
 -49249965.475    57029675.979        1173.772          58.000  
 -46874944.912    69510464.740       -2752.885          49.000  
 -44941940.846    79668520.435        2983.801          48.000  
 20  2 10 13 38 15.0000000  0 12R 5G 1G 6G10G12G13G15G17G19G24G28G32
 -46486786.571   225261466.997        2878.177          45.000  
 -45777442.160    75277888.904       -1962.941          46.000  
 -45321597.908    77673415.079        3534.491          47.000  
 -44681263.461    81038376.193       -2005.617          45.000  
 -47245736.756    67561967.451        3254.462          54.000  
 -45401126.603    77255435.514       -3912.456          47.000  
 -46188809.155    73116137.117       -3383.568          52.000  
 -48716035.475    59835509.538       -1019.221          57.000  
 -49396834.178    56257872.113         944.056          56.000  
 -49250189.430    57028502.510        1173.203          57.000  
 -46874421.095    69513217.676       -2753.108          50.000  
 -44942505.750    79665536.749        2983.533          48.000  
 20  2 10 13 38 16.0000000  0 12R 5G 1G 6G10G12G13G15G17G19G24G28G32
 -46487325.412   225258589.051        2877.740          45.000  
 -45777070.143    75279851.940       -1963.294          46.000  
 -45322270.018    77669880.577        3534.418          47.000  
 -44680886.011    81040381.984       -2006.047          44.000  
 -47246355.583    67558713.155        3254.177          54.000  
 -45400382.312    77259348.072       -3912.708          47.000  
 -46188166.468    73119520.827       -3383.933          52.000  
 -48715840.213    59836528.995       -1019.665          57.000  
 -49397013.361    56256928.399         943.373          56.000  
 -49250413.060    57027329.613        1172.608          57.000  
 -46873896.680    69515970.739       -2753.001          49.000  
 -44943075.871    79662553.421        2983.136          48.000  
 20  2 10 13 38 17.0000000  0 12R 5G 1G 6G10G12G13G15G17G19G24G28G32
 -46487863.541   225255711.789        2876.690          45.000  
 -45776694.425    75281815.770       -1964.408          46.000  
 -45322940.320    77666346.193        3534.343          47.000  
 -44680504.551    81042388.223       -2006.505          44.000  
 -47246975.114    67555459.086        3254.050          54.000  
 -45399637.570    77263260.658       -3912.450          47.000  
 -46187522.629    73122904.733       -3383.844          52.000  
 -48715645.329    59837549.032       -1020.412          57.000  
 -49397193.724    56255985.399         942.641          56.000  
 -49250635.299    57026157.293        1172.069          57.000  
 -46873374.275    69518723.970       -2753.446          49.000  
 -44943642.423    79659570.458        2982.679          48.000  
 20  2 10 13 38 18.0000000  0 12R 5G 1G 6G10G12G13G15G17G19G24G28G32
 -46488401.643   225252835.170        2876.380          45.000  
 -45776320.184    75283780.181       -1964.682          46.000  
 -45323612.835    77662811.914        3534.222          47.000  
 -44680121.739    81044394.903       -2006.953          44.000  
 -47247594.329    67552205.260        3253.687          54.000  
 -45398893.654    77267173.309       -3912.683          47.000  
 -46186877.121    73126288.870       -3384.328          52.000  
 -48715450.757    59838569.624       -1020.834          57.000  
 -49397372.299    56255043.114         941.940          56.000  
 -49250858.747    57024985.546        1171.485          57.000  
 -46872850.486    69521477.325       -2753.354          49.000  
 -44944206.848    79656587.831        2982.495          49.000  
 20  2 10 13 38 19.0000000  0 12R 5G 1G 6G10G12G13G15G17G19G24G28G32
 -46488939.250   225249959.217        2875.499          45.000  
 -45775947.067    75285745.208       -1965.482          46.000  
 -45324285.953    77659277.761        3534.147          47.000  
 -44679736.127    81046402.015       -2007.394          45.000  
 -47248213.520    67548951.661        3253.517          54.000  
 -45398150.879    77271086.000       -3912.540          47.000  
 -46186232.679    73129673.200       -3384.358          52.000  
 -48715256.972    59839590.779       -1021.510          57.000  
 -49397551.066    56254101.528         941.233          56.000  
 -49251081.494    57023814.358        1170.936          57.000  
 -46872325.651    69524230.835       -2753.652          49.000  
 -44944773.662    79653605.569        2982.113          49.000  
 20  2 10 13 38 20.0000000  0 12R 5G 1G 6G10G12G13G15G17G19G24G28G32
 -46489477.728   225247083.935        2874.596          45.000  
 -45775576.041    75287710.848       -1966.241          46.000  
 -45324959.041    77655743.701        3534.029          47.000  
 -44679353.286    81048409.583       -2007.939          45.000  
 -47248832.771    67545698.298        3253.389          54.000  
 -45397405.347    77274998.743       -3912.460          47.000  
 -46185588.499    73133057.751       -3384.386          52.000  
 -48715063.042    59840612.502       -1022.147          57.000  
 -49397729.787    56253160.664         940.500          56.000  
 -49251303.805    57022643.736        1170.339          57.000  
 -46871800.950    69526984.503       -2753.992          49.000  
 -44945340.857    79650623.679        2981.552          49.000  
 20  2 10 13 38 21.0000000  0 12R 5G 1G 6G10G12G13G15G17G19G24G28G32
 -46490015.698   225244209.264        2874.121          45.000  
 -45775201.727    75289677.058       -1966.712          46.000  
 -45325631.883    77652209.755        3534.011          47.000  
 -44678966.927    81050417.594       -2008.273          45.000  
 -47249452.168    67542445.188        3253.122          53.000  
 -45396659.866    77278911.580       -3912.665          47.000  
 -46184945.000    73136442.554       -3384.775          52.000  
 -48714867.857    59841634.776       -1022.677          57.000  
 -49397908.172    56252220.514         939.781          56.000  
 -49251526.806    57021473.686        1169.795          58.000  
 -46871275.353    69529738.278       -2754.012          49.000  
 -44945906.175    79647642.111        2981.220          49.000  
 20  2 10 13 38 22.0000000  0 12R 5G 1G 6G10G12G13G15G17G19G24G28G32
 -46490553.827   225241335.237        2873.670          45.000  
 -45774827.569    75291643.888       -1967.229          46.000  
 -45326304.326    77648675.941        3533.706          47.000  
 -44678584.942    81052426.037       -2008.593          45.000  
 -47250072.593    67539192.308        3252.771          54.000  
 -45395916.786    77282824.466       -3912.911          47.000  
 -46184302.779    73139827.562       -3384.995          52.000  
 -48714672.958    59842657.608       -1023.183          57.000  
 -49398087.128    56251281.069         939.115          56.000  
 -49251749.335    57020304.217        1169.200          57.000  
 -46870752.362    69532492.213       -2754.105          50.000  
 -44946472.386    79644660.895        2981.045          49.000  
 20  2 10 13 38 23.0000000  0 12R 5G 1G 6G10G12G13G15G17G19G24G28G32
 -46491090.403   225238461.852        2873.171          45.000  
 -45774453.895    75293611.319       -1967.652          46.000  
 -45326975.816    77645142.227        3533.645          47.000  
 -44678204.853    81054434.949       -2009.109          45.000  
 -47250690.623    67535939.663        3252.455          54.000  
 -45395171.229    77286737.390       -3913.127          47.000  
 -46183659.289    73143212.791       -3385.447          52.000  
 -48714478.992    59843681.007       -1023.635          57.000  
 -49398266.057    56250342.344         938.397          56.000  
 -49251971.089    57019135.332        1168.574          57.000  
 -46870227.154    69535246.274       -2754.017          49.000  
 -44947040.583    79641680.044        2980.757          49.000  
 20  2 10 13 38 24.0000000  0 12R 5G 1G 6G10G12G13G15G17G19G24G28G32
 -46491627.138   225235589.096        2872.416          45.000  
 -45774080.633    75295579.381       -1968.440          46.000  
 -45327648.468    77641608.624        3533.641          47.000  
 -44677823.739    81056444.322       -2009.741          45.000  
 -47251308.520    67532687.267        3252.255          53.000  
 -45394424.581    77290650.379       -3913.022          47.000  
 -46183013.636    73146598.228       -3385.518          52.000  
 -48714283.491    59844704.974       -1024.255          57.000  
 -49398444.288    56249404.335         937.657          56.000  
 -49252192.506    57017967.024        1167.973          57.000  
 -46869702.899    69538000.502       -2754.205          49.000  
 -44947605.907    79638699.549        2980.367          49.000  
 20  2 10 13 38 25.0000000  0 12R 5G 1G 6G10G12G13G15G17G19G24G28G32
 -46492165.326   225232716.937        2872.338          45.000  
 -45773708.181    75297548.008       -1968.526          46.000  
 -45328321.056    77638075.149        3533.336          47.000  
 -44677439.643    81058454.108       -2009.883          44.000  
 -47251927.204    67529435.107        3251.772          54.000  
 -45393678.970    77294563.426       -3913.462          47.000  
 -46182366.537    73149983.906       -3386.237          52.000  
 -48714088.084    59845729.484       -1024.523          57.000  
 -49398621.866    56248467.022         936.960          56.000  
 -49252414.600    57016799.317        1167.400          57.000  
 -46869177.874    69540754.829       -2753.920          49.000  
 -44948173.745    79635719.391        2980.334          49.000  
 20  2 10 13 38 26.0000000  0 12R 5G 1G 6G10G12G13G15G17G19G24G28G32
 -46492702.438   225229845.469        2872.127          45.000  
 -45773334.229    75299517.298       -1968.499          46.000  
 -45328992.807    77634541.773        3533.220          47.000  
 -44677060.415    81060464.363       -2010.144          45.000  
 -47252546.020    67526183.171        3251.293          54.000  
 -45392935.013    77298476.524       -3913.969          47.000  
 -46181722.220    73153369.768       -3386.779          52.000  
 -48713893.200    59846754.582       -1024.806          57.000  
 -49398800.896    56247530.430         936.289          56.000  
 -49252638.326    57015632.179        1166.849          57.000  
 -46868654.228    69543509.354       -2753.745          49.000  
 -44948743.474    79632739.612        2980.094          48.000  
 20  2 10 13 38 27.0000000  0 12R 5G 1G 6G10G12G13G15G17G19G24G28G32
 -46493239.450   225226974.872        2868.869          45.000  
 -45772957.037    75301487.388       -1971.597          46.000  
 -45329667.054    77631008.485        3533.589          46.000  
 -44676680.312    81062475.093       -2011.041          45.000  
 -47253166.408    67522931.369        3252.420          54.000  
 -45392189.998    77302389.504       -3911.923          47.000  
 -46181079.316    73156755.697       -3384.927          52.000  
 -48713698.555    59847780.359       -1026.842          57.000  
 -49398979.163    56246594.557         935.471          56.000  
 -49252861.290    57014465.587        1166.438          57.000  
 -46868130.878    69546264.185       -2756.024          49.000  
 -44949309.850    79629760.278        2978.587          49.000  
 20  2 10 13 38 28.0000000  0 12R 5G 1G 6G10G12G13G15G17G19G24G28G32
 -46493776.186   225224104.651        2868.173          45.000  
 -45772580.774    75303457.817       -1972.686          46.000  
 -45330340.802    77627475.359        3533.383          47.000  
 -44676297.354    81064486.231       -2011.642          44.000  
 -47253785.624    67519679.957        3252.165          53.000  
 -45391442.945    77306302.777       -3911.815          47.000  
 -46180435.999    73160142.064       -3384.824          50.000  
 -48713504.454    59848806.524       -1027.421          57.000  
 -49399157.575    56245659.377         934.799          56.000  
 -49253082.609    57013299.601        1165.791          57.000  
 -46867608.424    69549018.906       -2756.312          49.000  
 -44949875.342    79626781.184        2978.042          48.000  
 20  2 10 13 38 29.0000000  0 12R 5G 1G 6G10G12G13G15G17G19G24G28G32
 -46494313.502   225221235.008        2869.296          45.000  
 -45772202.953    75305428.722       -1971.354          47.000  
 -45331014.219    77623942.349        3533.049          46.000  
 -44675914.137    81066497.798       -2011.795          44.000  
 -47254403.811    67516428.817        3251.129          53.000  
 -45390699.115    77310216.166       -3913.233          47.000  
 -46179791.268    73163528.760       -3386.798          51.000  
 -48713309.222    59849833.214       -1027.030          57.000  
 -49399335.244    56244724.912         934.122          56.000  
 -49253303.216    57012134.193        1165.152          57.000  
 -46867084.026    69551773.705       -2755.043          49.000  
 -44950446.101    79623802.371        2978.644          48.000  
 20  2 10 13 38 30.0000000  0 12R 5G 1G 6G10G12G13G15G17G19G24G28G32
 -46494850.323   225218366.177        2869.792          45.000  
 -45771828.481    75307400.445       -1970.566          46.000  
 -45331686.911    77620409.427        3532.613          46.000  
 -44675533.503    81068509.847       -2012.000          44.000  
 -47255021.357    67513177.836        3250.125          54.000  
 -45389953.800    77314129.487       -3914.407          47.000  
 -46179147.516    73166915.489       -3388.015          52.000  
 -48713113.681    59850860.564       -1026.877          57.000  
 -49399513.574    56243791.169         933.445          56.000  
 -49253523.665    57010969.345        1164.513          58.000  
 -46866559.691    69554528.792       -2753.925          49.000  
 -44951015.439    79620824.017        2978.920          48.000  
 20  2 10 13 38 31.0000000  0 12R 5G 1G 6G10G12G13G15G17G19G24G28G32
 -46495386.174   225215498.082        2868.364          45.000  
 -45771454.553    75309372.895       -1972.095          47.000  
 -45332359.062    77616876.594        3532.730          46.000  
 -44675153.376    81070522.337       -2012.603          44.000  
 -47255639.666    67509927.010        3250.396          54.000  
 -45389209.398    77318042.753       -3913.793          47.000  
 -46178501.587    73170302.341       -3387.440          52.000  
 -48712917.730    59851888.541       -1027.873          57.000  
 -49399690.853    56242858.130         932.652          56.000  
 -49253745.444    57009805.060        1163.991          58.000  
 -46866034.093    69557284.113       -2754.836          49.000  
 -44951582.586    79617846.088        2978.095          48.000  
 20  2 10 13 38 32.0000000  0 12R 5G 1G 6G10G12G13G15G17G19G24G28G32
 -46495922.473   225212630.574        2866.612          45.000  
 -45771077.288    75311345.872       -1973.952          47.000  
 -45333030.443    77613343.890        3532.724          46.000  
 -44674767.698    81072535.291       -2013.167          44.000  
 -47256260.368    67506676.468        3250.770          54.000  
 -45388465.616    77321956.132       -3912.856          47.000  
 -46177855.171    73173689.475       -3386.750          53.000  
 -48712721.493    59852917.043       -1029.174          57.000  
 -49399867.778    56241925.801         931.960          56.000  
 -49253968.263    57008641.356        1163.442          57.000  
 -46865510.520    69560039.532       -2756.088          49.000  
 -44952150.414    79614868.475        2977.022          47.000  
 20  2 10 13 38 33.0000000  0 12R 5G 1G 6G10G12G13G15G17G19G24G28G32
 -46496459.439   225209763.635        2865.741          45.000  
 -45770700.555    75313319.347       -1974.653          47.000  
 -45333702.162    77609811.319        3532.707          46.000  
 -44674378.370    81074548.664       -2013.676          44.000  
 -47256879.269    67503426.220        3250.651          54.000  
 -45387722.545    77325869.643       -3912.655          47.000  
 -46177210.846    73177076.899       -3386.701          52.000  
 -48712525.008    59853946.047       -1029.839          57.000  
 -49400045.247    56240994.182         931.231          56.000  
 -49254190.804    57007478.205        1162.938          57.000  
 -46864985.888    69562795.000       -2756.400          49.000  
 -44952719.599    79611891.136        2976.726          47.000  
 20  2 10 13 38 34.0000000  0 12R 5G 1G 6G10G12G13G15G17G19G24G28G32
 -46496996.452   225206897.309        2865.958          45.000  
 -45770324.426    75315293.392       -1974.385          47.000  
 -45334375.392    77606278.875        3532.387          46.000  
 -44673991.997    81076562.461       -2013.898          44.000  
 -47257496.357    67500176.231        3249.941          54.000  
 -45386979.114    77329783.257       -3913.516          47.000  
 -46176566.695    73180464.589       -3387.759          52.000  
 -48712329.025    59854975.578       -1029.843          57.000  
 -49400222.154    56240063.264         930.560          55.000  
 -49254412.378    57006315.648        1162.279          57.000  
 -46864461.995    69565550.564       -2755.728          49.000  
 -44953285.750    79608914.152        2976.749          47.000  
 20  2 10 13 38 35.0000000  0 12R 5G 1G 6G10G12G13G15G17G19G24G28G32
 -46497532.243   225204031.683        2866.040          45.000  
 -45769950.317    75317268.137       -1974.283          47.000  
 -45335048.053    77602746.526        3532.139          46.000  
 -44673608.206    81078576.751       -2014.452          44.000  
 -47258112.972    67496926.441        3249.263          54.000  
 -45386233.495    77333696.860       -3914.205          47.000  
 -46175922.348    73183852.419       -3388.533          52.000  
 -48712132.457    59856005.724       -1030.012          57.000  
 -49400398.363    56239133.067         929.871          56.000  
 -49254632.452    57005153.660        1161.658          57.000  
 -46863938.132    69568306.351       -2755.270          49.000  
 -44953853.556    79605937.561        2976.874          47.000  
 20  2 10 13 38 36.0000000  0 12R 5G 1G 6G10G12G13G15G17G19G24G28G32
 -46498068.338   225201166.740        2865.416          45.000  
 -45769575.700    75319243.543       -1974.856          47.000  
 -45335720.668    77599214.274        3532.076          46.000  
 -44673222.979    81080591.466       -2014.852          45.000  
 -47258730.324    67493676.847        3249.076          54.000  
 -45385488.984    77337610.458       -3914.177          47.000  
 -46175277.384    73187240.413       -3388.653          53.000  
 -48711936.532    59857036.478       -1030.637          57.000  
 -49400575.042    56238203.586         929.138          56.000  
 -49254853.506    57003992.260        1161.089          58.000  
 -46863414.568    69571062.358       -2755.606          49.000  
 -44954418.439    79602961.377        2976.397          47.000  
 20  2 10 13 38 37.0000000  0 12R 5G 1G 6G10G12G13G15G17G19G24G28G32
 -46498604.056   225198302.419        2863.968          45.000  
 -45769199.040    75321219.555       -1976.198          47.000  
 -45336392.054    77595682.160        3532.031          46.000  
 -44672840.239    81082606.632       -2015.355          45.000  
 -47259349.032    67490427.504        3249.169          54.000  
 -45384744.001    77341524.120       -3913.765          47.000  
 -46174632.042    73190628.640       -3388.385          53.000  
 -48711740.378    59858067.768       -1031.527          57.000  
 -49400752.112    56237274.805         928.405          55.000  
 -49255074.390    57002831.419        1160.568          57.000  
 -46862889.365    69573818.460       -2756.188          49.000  
 -44954985.304    79599985.510        2975.717          47.000  
 20  2 10 13 38 38.0000000  0 12R 5G 1G 6G10G12G13G15G17G19G24G28G32
 -46499139.253   225195438.704        2862.819          45.000  
 -45768822.318    75323196.123       -1977.461          47.000  
 -45337062.787    77592150.151        3532.016          46.000  
 -44672461.157    81084622.242       -2015.865          45.000  
 -47259968.211    67487178.418        3249.277          54.000  
 -45383999.340    77345437.868       -3913.230          47.000  
 -46173987.478    73194017.116       -3388.108          52.000  
 -48711544.054    59859099.609       -1032.434          57.000  
 -49400928.992    56236346.740         927.670          56.000  
 -49255294.923    57001671.149        1160.023          57.000  
 -46862365.070    69576574.691       -2756.785          49.000  
 -44955548.068    79597010.003        2974.966          48.000  
 20  2 10 13 38 39.0000000  0 12R 5G 1G 6G10G12G13G15G17G19G24G28G32
 -46499674.245   225192575.641        2862.395          45.000  
 -45768446.383    75325173.269       -1977.932          47.000  
 -45337732.580    77588618.263        3531.878          46.000  
 -44672080.603    81086638.287       -2016.231          45.000  
 -47260586.108    67483929.595        3248.959          54.000  
 -45383255.476    77349351.711       -3913.462          47.000  
 -46173343.362    73197405.849       -3388.476          52.000  
 -48711347.341    59860131.989       -1032.914          57.000  
 -49401105.491    56235419.390         926.988          56.000  
 -49255515.408    57000511.447        1159.480          57.000  
 -46861838.917    69579331.025       -2756.792          49.000  
 -44956112.645    79594034.815        2974.722          48.000  
 20  2 10 13 38 40.0000000  0 12R 5G 1G 6G10G12G13G15G17G19G24G28G32
 -46500209.382   225189713.256        2862.237          45.000  
 -45768071.089    75327150.991       -1977.930          47.000  
 -45338402.658    77585086.504        3531.617          47.000  
 -44671697.407    81088654.793       -2016.660          45.000  
 -47261204.634    67480681.008        3248.383          54.000  
 -45382510.452    77353265.621       -3914.076          47.000  
 -46172697.956    73200794.804       -3389.210          52.000  
 -48711151.695    59861164.917       -1033.109          57.000  
 -49401281.735    56234492.747         926.276          56.000  
 -49255735.615    56999352.331        1158.812          57.000  
 -46861313.679    69582087.486       -2756.382          49.000  
 -44956675.814    79591059.975        2974.798          48.000  
 20  2 10 13 38 41.0000000  0 12R 5G 1G 6G10G12G13G15G17G19G24G28G32
 -46500744.751   225186851.593        2861.909          46.000  
 -45767693.642    75329129.390       -1978.110          47.000  
 -45339074.403    77581554.832        3531.528          47.000  
 -44671312.528    81090671.729       -2017.091          45.000  
 -47261822.725    67477432.622        3247.973          54.000  
 -45381765.453    77357179.501       -3914.322          47.000  
 -46172053.050    73204183.900       -3389.628          52.000  
 -48710956.070    59862198.454       -1033.475          57.000  
 -49401457.962    56233566.811         925.603          55.000  
 -49255956.161    56998193.798        1158.261          58.000  
 -46860789.714    69584844.151       -2756.285          49.000  
 -44957241.509    79588085.536        2974.584          48.000  
 20  2 10 13 38 42.0000000  0 12R 5G 1G 6G10G12G13G15G17G19G24G28G32
 -46501280.020   225183990.559        2860.978          46.000  
 -45767316.244    75331108.417       -1979.101          47.000  
 -45339746.296    77578023.275        3531.475          47.000  
 -44670927.975    81092689.134       -2017.712          45.000  
 -47262440.694    67474184.472        3247.886          54.000  
 -45381022.061    77361093.430       -3914.055          47.000  
 -46171408.209    73207573.212       -3389.578          53.000  
 -48710759.481    59863232.574       -1034.269          57.000  
 -49401634.605    56232641.594         924.852          55.000  
 -49256176.368    56997035.827        1157.678          58.000  
 -46860264.173    69587600.959       -2756.586          49.000  
 -44957806.552    79585111.474        2974.003          48.000  
 20  2 10 13 38 43.0000000  0 12R 5G 1G 6G10G12G13G15G17G19G24G28G32
 -46501814.589   225181130.119        2859.918          46.000  
 -45766938.374    75333088.039       -1980.236          47.000  
 -45340417.398    77574491.843        3531.323          47.000  
 -44670541.601    81094706.948       -2017.943          45.000  
 -47263058.386    67470936.560        3247.931          54.000  
 -45380277.623    77365007.427       -3913.746          47.000  
 -46170762.578    73210962.753       -3389.448          52.000  
 -48710562.079    59864267.227       -1035.108          57.000  
 -49401811.113    56231717.077         924.125          56.000  
 -49256396.611    56995878.442        1157.143          58.000  
 -46859737.890    69590357.903       -2757.181          50.000  
 -44958372.079    79582137.731        2973.423          48.000  
 20  2 10 13 38 44.0000000  0 12R 5G 1G 6G10G12G13G15G17G19G24G28G32
 -46502349.436   225178270.288        2859.007          46.000  
 -45766562.076    75335068.236       -1981.125          47.000  
 -45341090.091    77570960.516        3531.371          47.000  
 -44670161.800    81096725.222       -2018.257          44.000  
 -47263676.174    67467688.913        3247.814          54.000  
 -45379533.052    77368921.516       -3913.629          47.000  
 -46170118.412    73214352.544       -3389.450          52.000  
 -48710364.884    59865302.435       -1035.802          57.000  
 -49401986.795    56230793.279         923.396          56.000  
 -49256616.710    56994721.658        1156.535          58.000  
 -46859212.569    69593114.964       -2757.608          50.000  
 -44958935.566    79579164.338        2972.991          48.000  
 20  2 10 13 38 45.0000000  0 12R 5G 1G 6G10G12G13G15G17G19G24G28G32
 -46502884.428   225175411.071        2858.552          46.000  
 -45766183.807    75337048.971       -1981.557          47.000  
 -45341760.932    77567429.328        3531.253          47.000  
 -44669779.200    81098743.974       -2018.878          44.000  
 -47264296.018    67464441.536        3247.498          53.000  
 -45378786.776    77372835.719       -3913.994          47.000  
 -46169473.492    73217742.605       -3389.808          52.000  
 -48710167.859    59866338.178       -1036.277          57.000  
 -49402161.816    56229870.192         922.731          56.000  
 -49256837.013    56993565.455        1155.959          57.000  
 -46858687.776    69595872.105       -2757.607          50.000  
 -44959500.168    79576191.281        2972.723          49.000  
 20  2 10 13 38 46.0000000  0 12R 5G 1G 6G10G12G13G15G17G19G24G28G32
 -46503419.420   225172552.585        2858.783          46.000  
 -45765805.622    75339030.372       -1981.033          47.000  
 -45342432.208    77563898.249        3530.917          47.000  
 -44669396.250    81100763.155       -2019.258          44.000  
 -47264916.105    67461194.364        3246.763          53.000  
 -45378041.656    77376749.922       -3914.769          47.000  
 -46168829.848    73221132.832       -3390.875          52.000  
 -48709971.146    59867374.500       -1036.231          57.000  
 -49402336.745    56228947.818         922.044          55.000  
 -49257056.652    56992409.844        1155.299          57.000  
 -46858163.073    69598629.445       -2756.925          50.000  
 -44960065.687    79573218.604        2972.842          49.000  
 20  2 10 13 38 47.0000000  0 12R 5G 1G 6G10G12G13G15G17G19G24G28G32
 -46503954.776   225169694.828        2857.952          46.000  
 -45765428.224    75341012.472       -1981.820          47.000  
 -45343104.467    77560367.268        3530.938          47.000  
 -44669005.951    81102782.787       -2019.886          44.000  
 -47265532.768    67457947.394        3246.582          54.000  
 -45377299.202    77380664.115       -3914.657          47.000  
 -46168184.935    73224523.205       -3390.865          52.000  
 -48709773.323    59868411.433       -1036.883          57.000  
 -49402511.484    56228026.165         921.297          56.000  
 -49257276.883    56991254.792        1154.754          57.000  
 -46857639.398    69601386.984       -2757.083          50.000  
 -44960632.972    79570246.334        2972.277          49.000  
 20  2 10 13 38 48.0000000  0 12R 5G 1G 6G10G12G13G15G17G19G24G28G32
 -46504489.392   225166837.715        2856.207          46.000  
 -45765051.611    75342995.166       -1983.466          47.000  
 -45343776.863    77556836.416        3530.869          47.000  
 -44668620.890    81104802.851       -2020.265          45.000  
 -47266149.371    67454700.666        3246.881          54.000  
 -45376554.289    77384578.361       -3913.834          46.000  
 -46167540.537    73227913.808       -3390.311          52.000  
 -48709574.749    59869448.928       -1038.120          57.000  
 -49402686.241    56227105.228         920.556          55.000  
 -49257496.486    56990100.314        1154.252          58.000  
 -46857114.773    69604144.659       -2758.156          49.000  
 -44961198.399    79567274.382        2971.587          49.000  
 20  2 10 13 38 49.0000000  0 12R 5G 1G 6G10G12G13G15G17G19G24G28G32
 -46505024.033   225163981.094        2855.499          46.000  
 -45764672.508    75344978.325       -1984.318          47.000  
 -45344449.849    77553305.680        3530.775          47.000  
 -44668237.730    81106823.368       -2020.821          45.000  
 -47266768.067    67451454.231        3246.756          53.000  
 -45375808.751    77388492.759       -3913.743          46.000  
 -46166895.486    73231304.706       -3390.204          52.000  
 -48709376.212    59870486.895       -1038.757          57.000  
 -49402861.888    56226184.983         919.840          56.000  
 -49257715.677    56988946.423        1153.679          58.000  
 -46856589.903    69606902.365       -2758.481          49.000  
 -44961762.468    79564302.772        2970.981          48.000  
 20  2 10 13 38 50.0000000  0 12R 5G 1G 6G10G12G13G15G17G19G24G28G32
 -46505558.867   225161125.134        2855.759          45.000  
 -45764296.053    75346962.106       -1983.835          47.000  
 -45345122.033    77549775.068        3530.499          47.000  
 -44667851.777    81108844.307       -2021.126          45.000  
 -47267386.653    67448208.037        3245.972          53.000  
 -45375063.473    77392407.215       -3914.617          46.000  
 -46166250.246    73234695.833       -3391.391          52.000  
 -48709179.064    59871525.438       -1038.745          57.000  
 -49403037.443    56225265.459         919.192          55.000  
 -49257934.469    56987793.112        1153.034          58.000  
 -46856066.142    69609660.225       -2757.790          50.000  
 -44962331.720    79561331.504        2971.077          48.000  
 20  2 10 13 38 51.0000000  0 12R 5G 1G 6G10G12G13G15G17G19G24G28G32
 -46506092.262   225158269.891        2855.386          45.000  
 -45763919.864    75348946.568       -1984.232          47.000  
 -45345795.457    77546244.555        3530.435          47.000  
 -44667464.939    81110865.700       -2021.532          45.000  
 -47268004.635    67444962.046        3245.587          54.000  
 -45374319.462    77396321.666       -3914.897          46.000  
 -46165604.687    73238087.109       -3391.832          52.000  
 -48708981.469    59872564.588       -1039.151          57.000  
 -49403212.916    56224346.655         918.458          56.000  
 -49258153.334    56986640.392        1152.381          58.000  
 -46855541.920    69612418.276       -2757.607          50.000  
 -44962899.039    79558360.613        2970.981          48.000  
 20  2 10 13 38 52.0000000  0 12R 5G 1G 6G10G12G13G15G17G19G24G28G32
 -46506626.250   225155415.346        2854.415          45.000  
 -45763544.787    75350931.671       -1985.184          47.000  
 -45346468.693    77542714.157        3530.307          47.000  
 -44667079.544    81112887.542       -2021.911          45.000  
 -47268622.665    67441716.274        3245.535          53.000  
 -45373574.808    77400236.147       -3914.664          46.000  
 -46164958.903    73241478.575       -3391.749          52.000  
 -48708784.263    59873604.305       -1039.837          57.000  
 -49403387.837    56223428.557         917.748          55.000  
 -49258373.081    56985488.232        1151.873          58.000  
 -46855016.567    69615176.507       -2758.161          50.000  
 -44963464.023    79555390.100        2970.563          48.000  
 20  2 10 13 38 53.0000000  0 12R 5G 1G 6G10G12G13G15G17G19G24G28G32
 -46507159.922   225152561.445        2853.383          45.000  
 -45763167.123    75352917.356       -1986.196          47.000  
 -45347140.765    77539183.886        3530.222          47.000  
 -44666697.327    81114909.838       -2022.480          45.000  
 -47269240.490    67438470.749        3245.492          53.000  
 -45372830.714    77404150.682       -3914.220          46.000  
 -46164313.685    73244870.278       -3391.686          52.000  
 -48708586.778    59874644.581       -1040.699          57.000  
 -49403562.385    56222511.172         917.023          56.000  
 -49258593.445    56984336.642        1151.315          58.000  
 -46854492.059    69617934.857       -2758.506          49.000  
 -44964030.697    79552419.955        2969.864          48.000  
 20  2 10 13 38 54.0000000  0 12R 5G 1G 6G10G12G13G15G17G19G24G28G32
 -46507693.316   225149708.155        2852.757          45.000  
 -45762789.447    75354903.606       -1986.734          47.000  
 -45347812.546    77535653.735        3530.048          47.000  
 -44666316.417    81116932.555       -2022.890          45.000  
 -47269857.552    67435225.487        3245.289          53.000  
 -45372085.593    77408065.317       -3914.396          46.000  
 -46163667.909    73248262.226       -3391.887          52.000  
 -48708389.111    59875685.387       -1041.200          57.000  
 -49403736.553    56221594.507         916.271          55.000  
 -49258812.588    56983185.623        1150.730          58.000  
 -46853967.293    69620693.330       -2758.811          50.000  
 -44964596.015    79549450.137        2969.565          48.000  
 20  2 10 13 38 55.0000000  0 12R 5G 1G 6G10G12G13G15G17G19G24G28G32
 -46508227.146   225146855.505        2852.361          45.000  
 -45762409.472    75356890.458       -1987.042          47.000  
 -45348484.112    77532123.701        3529.950          47.000  
 -44665933.656    81118955.735       -2023.478          45.000  
 -47270473.430    67431980.463        3244.933          54.000  
 -45371339.442    77411980.009       -3914.791          46.000  
 -46163022.227    73251654.379       -3392.298          52.000  
 -48708190.874    59876726.747       -1041.626          57.000  
 -49403911.437    56220678.522         915.636          55.000  
 -49259030.993    56982035.197        1150.151          58.000  
 -46853443.870    69623451.926       -2758.842          50.000  
 -44965161.354    79546480.675        2969.226          48.000  
 20  2 10 13 38 56.0000000  0 12R 5G 1G 6G10G12G13G15G17G19G24G28G32
 -46508760.771   225144003.501        2851.837          45.000  
 -45762030.466    75358877.954       -1987.683          47.000  
 -45349156.481    77528593.777        3529.843          47.000  
 -44665547.420    81120979.367       -2023.924          45.000  
 -47271089.706    67428735.681        3244.551          54.000  
 -45370595.648    77415894.725       -3914.891          46.000  
 -46162376.326    73255046.739       -3392.586          52.000  
 -48707992.253    59877768.684       -1042.110          57.000  
 -49404085.759    56219763.268         914.905          56.000  
 -49259248.890    56980885.347        1149.559          57.000  
 -46852919.420    69626210.659       -2758.656          49.000  
 -44965727.006    79543511.563        2969.156          48.000  
 20  2 10 13 38 57.0000000  0 12R 5G 1G 6G10G12G13G15G17G19G24G28G32
